{
  "properties": [
    {
      "id": "1",
      "name": "Modern Apartment",
      "type": "Apartment",
      "price": 4500000,
      "location": "Bangalore",
      "description": "Spacious 2BHK apartment near city center",
      "latitude": 12.9716,
      "longitude": 77.5946
    },
    {
      "id": "2",
      "name": "Luxury Villa",
      "type": "Villa",
      "price": 12500000,
      "location": "Hyderabad",
      "description": "Beautiful villa with garden and pool",
      "latitude": 17.385,
      "longitude": 78.4867
    },
    {
      "id": "3",
      "name": "Cozy Family House",
      "type": "House",
      "price": 7800000,
      "location": "Chennai",
      "description": "3BHK house with a large backyard, perfect for a family",
      "latitude": 13.0827,
      "longitude": 80.2707
    },
    {
      "id": "4",
      "name": "Downtown Studio",
      "type": "Studio",
      "price": 2800000,
      "location": "Mumbai",
      "description": "Compact studio apartment in a prime business district",
      "latitude": 19.076,
      "longitude": 72.8777
    },
    {
      "id": "5",
      "name": "Riverside Condo",
      "type": "Apartment",
      "price": 6200000,
      "location": "Kolkata",
      "description": "3BHK apartment with stunning river views",
      "latitude": 22.5726,
      "longitude": 88.3639
    },
    {
      "name": "Hillside Villa",
      "type": "Villa",
      "price": 9800000,
      "location": "Pune",
      "description": "Elegant hillside villa with private pool and panoramic valley views",
      "latitude": 18.5204,
      "longitude": 73.8567,
      "id": "2pgcwFh"
    }
  ]
}